[
    {
        "id": "r01",
        "name": "Husk",
        "subtitle": "Modern Southern cuisine in a historic mansion",
        "imageName": "husk",
        "category": "Food",
        "type": "Southern",
        "address": "76 Queen St, Charleston, SC 29401",
        "phone": "8435772500",
        "dealAvailable": false,
        "featured": true,
        "hours": "Mon-Sun: 11am-10pm",
        "tags": [
            "restaurant",
            "southern",
            "downtown"
        ]
    },
    {
        "id": "r02",
        "name": "167 Raw Oyster Bar",
        "subtitle": "Seafood bar with oysters and lobster rolls",
        "imageName": "167_raw_oyster_bar",
        "category": "Food",
        "type": "Seafood",
        "address": "193 King St, Charleston, SC 29401",
        "phone": "8435794997",
        "dealAvailable": false,
        "featured": false,
        "hours": "Mon-Sun: 11am-10pm",
        "tags": [
            "restaurant",
            "seafood",
            "downtown"
        ]
    },
    {
        "id": "r03",
        "name": "Xiao Bao Biscuit",
        "subtitle": "Asian fusion with bold flavors in a cool setting",
        "imageName": "xiao_bao_biscuit",
        "category": "Food",
        "type": "Asian Fusion",
        "address": "224 Rutledge Ave, Charleston, SC 29403",
        "phone": "8436378030",
        "dealAvailable": false,
        "featured": false,
        "hours": "Mon-Sun: 11am-10pm",
        "tags": [
            "restaurant",
            "asian fusion",
            "downtown"
        ]
    },
    {
        "id": "r04",
        "name": "Leon’s Oyster Shop",
        "subtitle": "Southern-style fried chicken & oysters",
        "imageName": "leons_oyster_shop",
        "category": "Food",
        "type": "Southern",
        "address": "698 King St, Charleston, SC 29403",
        "phone": "8435316500",
        "dealAvailable": false,
        "featured": false,
        "hours": "Mon-Sun: 11am-10pm",
        "tags": [
            "restaurant",
            "southern",
            "downtown"
        ]
    },
    {
        "id": "r05",
        "name": "Indaco",
        "subtitle": "Rustic Italian eats & wood-fired pizza",
        "imageName": "indaco",
        "category": "Food",
        "type": "Italian",
        "address": "526 King St, Charleston, SC 29403",
        "phone": "8437271228",
        "dealAvailable": false,
        "featured": false,
        "hours": "Mon-Sun: 11am-10pm",
        "tags": [
            "restaurant",
            "italian",
            "downtown"
        ]
    },
    {
        "id": "r06",
        "name": "The Ordinary",
        "subtitle": "Oyster hall & seafood restaurant in a bank building",
        "imageName": "the_ordinary",
        "category": "Food",
        "type": "Seafood",
        "address": "544 King St, Charleston, SC 29403",
        "phone": "8434147060",
        "dealAvailable": false,
        "featured": true,
        "hours": "Mon-Sun: 5pm-10pm",
        "tags": [
            "restaurant",
            "seafood",
            "downtown"
        ]
    },
    {
        "id": "r07",
        "name": "Poogan’s Porch",
        "subtitle": "Classic Southern fare in a Victorian house",
        "imageName": "poogans_porch",
        "category": "Food",
        "type": "Southern",
        "address": "72 Queen St, Charleston, SC 29401",
        "phone": "8435772337",
        "dealAvailable": false,
        "featured": false,
        "hours": "Mon-Sun: 9am-9pm",
        "tags": [
            "restaurant",
            "southern",
            "downtown"
        ]
    },
    {
        "id": "r08",
        "name": "FIG",
        "subtitle": "Farm-to-table bistro with inventive dishes",
        "imageName": "fig",
        "category": "Food",
        "type": "American",
        "address": "232 Meeting St, Charleston, SC 29401",
        "phone": "8438055900",
        "dealAvailable": false,
        "featured": true,
        "hours": "Mon-Sat: 5pm-10:30pm",
        "tags": [
            "restaurant",
            "american",
            "downtown"
        ]
    },
    {
        "id": "r09",
        "name": "Fleet Landing Restaurant & Bar",
        "subtitle": "Seafood with waterfront views",
        "imageName": "fleet_landing",
        "category": "Food",
        "type": "Seafood",
        "address": "186 Concord St, Charleston, SC 29401",
        "phone": "8437228100",
        "dealAvailable": false,
        "featured": false,
        "hours": "Mon-Sun: 11am-10pm",
        "tags": [
            "restaurant",
            "seafood",
            "downtown"
        ]
    },
    {
        "id": "r10",
        "name": "Callie’s Hot Little Biscuit",
        "subtitle": "Biscuit sandwiches & Southern breakfast",
        "imageName": "callies_hot_little_biscuit",
        "category": "Food",
        "type": "Southern",
        "address": "476 1/2 King St, Charleston, SC 29403",
        "phone": "8437375159",
        "dealAvailable": false,
        "featured": false,
        "hours": "Mon-Sun: 8am-2pm",
        "tags": [
            "restaurant",
            "southern",
            "downtown"
        ]
    },
    {
        "id": "r11",
        "name": "Butcher & Bee",
        "subtitle": "Eclectic farm-to-table fare, bakery & brunch",
        "imageName": "butcher_and_bee",
        "category": "Food",
        "type": "Mediterranean",
        "address": "654 King St Ste B, Charleston, SC 29403",
        "phone": "8436190202",
        "dealAvailable": false,
        "featured": false,
        "hours": "Mon-Sun: 8am-10pm",
        "tags": [
            "restaurant",
            "mediterranean",
            "downtown"
        ]
    },
    {
        "id": "r12",
        "name": "Magnolias",
        "subtitle": "Upscale Southern cuisine in a refined space",
        "imageName": "magnolias",
        "category": "Food",
        "type": "Southern",
        "address": "185 E Bay St, Charleston, SC 29401",
        "phone": "8435777771",
        "dealAvailable": false,
        "featured": false,
        "hours": "Mon-Sun: 11:30am-9pm",
        "tags": [
            "restaurant",
            "southern",
            "downtown"
        ]
    },
    {
        "id": "r13",
        "name": "Hall’s Chophouse",
        "subtitle": "Classic steakhouse with live music",
        "imageName": "halls_chophouse",
        "category": "Food",
        "type": "Steakhouse",
        "address": "434 King St, Charleston, SC 29403",
        "phone": "8437270090",
        "dealAvailable": false,
        "featured": true,
        "hours": "Mon-Sun: 4pm-11pm",
        "tags": [
            "restaurant",
            "steakhouse",
            "downtown"
        ]
    },
    {
        "id": "r14",
        "name": "The Darling Oyster Bar",
        "subtitle": "Raw bar & seafood in a vintage space",
        "imageName": "the_darling_oyster_bar",
        "category": "Food",
        "type": "Seafood",
        "address": "513 King St, Charleston, SC 29403",
        "phone": "8436410821",
        "dealAvailable": false,
        "featured": false,
        "hours": "Mon-Sun: 4pm-10pm",
        "tags": [
            "restaurant",
            "seafood",
            "downtown"
        ]
    },
    {
        "id": "r15",
        "name": "Rodney Scott’s BBQ",
        "subtitle": "Award-winning whole hog barbecue",
        "imageName": "rodney_scotts_bbq",
        "category": "Food",
        "type": "Barbecue",
        "address": "1011 King St, Charleston, SC 29403",
        "phone": "8439909535",
        "dealAvailable": false,
        "featured": false,
        "hours": "Mon-Sun: 11am-9pm",
        "tags": [
            "restaurant",
            "barbecue",
            "downtown"
        ]
    },
    {
        "id": "r16",
        "name": "Lewis Barbecue",
        "subtitle": "Texas-style BBQ in a casual setting",
        "imageName": "lewis_barbecue",
        "category": "Food",
        "type": "Barbecue",
        "address": "464 N Nassau St, Charleston, SC 29403",
        "phone": "8438059500",
        "dealAvailable": false,
        "featured": false,
        "hours": "Mon-Sun: 11am-10pm",
        "tags": [
            "restaurant",
            "barbecue",
            "downtown"
        ]
    },
    {
        "id": "r17",
        "name": "Home Team BBQ",
        "subtitle": "Casual BBQ, wings & Southern sides",
        "imageName": "home_team_bbq",
        "category": "Food",
        "type": "Barbecue",
        "address": "126 Williman St, Charleston, SC 29403",
        "phone": "8432257427",
        "dealAvailable": false,
        "featured": false,
        "hours": "Mon-Sun: 11am-10pm",
        "tags": [
            "restaurant",
            "barbecue",
            "downtown"
        ]
    },
    {
        "id": "r18",
        "name": "SNOB (Slightly North of Broad)",
        "subtitle": "Inventive Lowcountry cuisine",
        "imageName": "snob",
        "category": "Food",
        "type": "Southern",
        "address": "192 E Bay St, Charleston, SC 29401",
        "phone": "8437233424",
        "dealAvailable": false,
        "featured": false,
        "hours": "Mon-Sun: 11:30am-9pm",
        "tags": [
            "restaurant",
            "southern",
            "downtown"
        ]
    },
    {
        "id": "r19",
        "name": "Millers All Day",
        "subtitle": "All-day breakfast & brunch, bakery",
        "imageName": "millers_all_day",
        "category": "Food",
        "type": "Breakfast",
        "address": "120 King St, Charleston, SC 29401",
        "phone": "8435017340",
        "dealAvailable": false,
        "featured": false,
        "hours": "Mon-Sun: 7am-3pm",
        "tags": [
            "restaurant",
            "breakfast",
            "downtown"
        ]
    },
    {
        "id": "r20",
        "name": "Basic Kitchen",
        "subtitle": "Healthy, seasonal fare in a sunny space",
        "imageName": "basic_kitchen",
        "category": "Food",
        "type": "Vegetarian",
        "address": "82 Wentworth St, Charleston, SC 29401",
        "phone": "8437894568",
        "dealAvailable": false,
        "featured": false,
        "hours": "Mon-Sun: 11am-9pm",
        "tags": [
            "restaurant",
            "vegetarian",
            "downtown"
        ]
    },
    {
        "id": "r21",
        "name": "The Grocery",
        "subtitle": "Seasonal New American fare & cocktails",
        "imageName": "the_grocery",
        "category": "Food",
        "type": "American",
        "address": "4 Cannon St, Charleston, SC 29403",
        "phone": "8433028825",
        "dealAvailable": false,
        "featured": false,
        "hours": "Mon-Sun: 5pm-10pm",
        "tags": [
            "restaurant",
            "american",
            "downtown"
        ]
    },
    {
        "id": "r22",
        "name": "Melfi’s",
        "subtitle": "Roman-inspired Italian fare & pizza",
        "imageName": "melfis",
        "category": "Food",
        "type": "Italian",
        "address": "721 King St, Charleston, SC 29403",
        "phone": "8435130307",
        "dealAvailable": false,
        "featured": false,
        "hours": "Mon-Sun: 5pm-10pm",
        "tags": [
            "restaurant",
            "italian",
            "downtown"
        ]
    },
    {
        "id": "r23",
        "name": "Minero",
        "subtitle": "Casual Mexican with tacos & tequila",
        "imageName": "minero",
        "category": "Food",
        "type": "Mexican",
        "address": "153 E Bay St, Charleston, SC 29401",
        "phone": "8437892241",
        "dealAvailable": false,
        "featured": false,
        "hours": "Mon-Sun: 11am-10pm",
        "tags": [
            "restaurant",
            "mexican",
            "downtown"
        ]
    },
    {
        "id": "r24",
        "name": "O-Ku",
        "subtitle": "Trendy Japanese sushi & cocktails",
        "imageName": "oku",
        "category": "Food",
        "type": "Japanese",
        "address": "463 King St, Charleston, SC 29403",
        "phone": "8437370112",
        "dealAvailable": false,
        "featured": false,
        "hours": "Mon-Sun: 5pm-10pm",
        "tags": [
            "restaurant",
            "japanese",
            "downtown"
        ]
    },
    {
        "id": "r25",
        "name": "The Obstinate Daughter",
        "subtitle": "Inventive Southern & Italian fare on Sullivan’s Island",
        "imageName": "the_obstinate_daughter",
        "category": "Food",
        "type": "Southern/Italian",
        "address": "2063 Middle St, Sullivan's Island, SC 29482",
        "phone": "8434165020",
        "dealAvailable": false,
        "featured": true,
        "hours": "Mon-Sun: 11am-10pm",
        "tags": [
            "restaurant",
            "southern",
            "italian",
            "sullivans island"
        ]
    },
    {
        "id": "r26",
        "name": "The Longboard",
        "subtitle": "Island-inspired seafood & cocktails",
        "imageName": "the_longboard",
        "category": "Food",
        "type": "Seafood",
        "address": "2213-B Middle St, Sullivan's Island, SC 29482",
        "phone": "8438686399",
        "dealAvailable": false,
        "featured": false,
        "hours": "Mon-Sun: 11am-10pm",
        "tags": [
            "restaurant",
            "seafood",
            "sullivans island"
        ]
    },
    {
        "id": "r27",
        "name": "Poe’s Tavern",
        "subtitle": "Burgers & beers in a literary-themed bar",
        "imageName": "poes_tavern",
        "category": "Food",
        "type": "Bar Food",
        "address": "2210 Middle St, Sullivan's Island, SC 29482",
        "phone": "8438830083",
        "dealAvailable": false,
        "featured": false,
        "hours": "Mon-Sun: 11am-10pm",
        "tags": [
            "restaurant",
            "bar food",
            "sullivans island"
        ]
    },
    {
        "id": "r28",
        "name": "Acme Lowcountry Kitchen",
        "subtitle": "Southern seafood & breakfast on Isle of Palms",
        "imageName": "acme_lowcountry_kitchen",
        "category": "Food",
        "type": "Seafood",
        "address": "31 J C Long Blvd, Isle of Palms, SC 29451",
        "phone": "8438863474",
        "dealAvailable": false,
        "featured": false,
        "hours": "Mon-Sun: 8am-9pm",
        "tags": [
            "restaurant",
            "seafood",
            "isle of palms"
        ]
    },
    {
        "id": "r29",
        "name": "The Boathouse at Breach Inlet",
        "subtitle": "Seafood & sunset views on Isle of Palms",
        "imageName": "the_boathouse_at_breach_inlet",
        "category": "Food",
        "type": "Seafood",
        "address": "101 Palm Blvd, Isle of Palms, SC 29451",
        "phone": "8438868000",
        "dealAvailable": false,
        "featured": false,
        "hours": "Mon-Sun: 4pm-10pm",
        "tags": [
            "restaurant",
            "seafood",
            "isle of palms"
        ]
    },
    {
        "id": "r30",
        "name": "Jack of Cups Saloon",
        "subtitle": "Creative global eats & craft beer on Folly Beach",
        "imageName": "jack_of_cups_saloon",
        "category": "Food",
        "type": "Global",
        "address": "34 Center St, Folly Beach, SC 29439",
        "phone": "8436330042",
        "dealAvailable": false,
        "featured": false,
        "hours": "Mon-Sun: 12pm-10pm",
        "tags": [
            "restaurant",
            "global",
            "folly beach"
        ]
    },
    {
        "id": "r31",
        "name": "Lost Dog Cafe",
        "subtitle": "Breakfast, brunch & coffee on Folly Beach",
        "imageName": "lost_dog_cafe",
        "category": "Food",
        "type": "Breakfast",
        "address": "106 W Huron Ave, Folly Beach, SC 29439",
        "phone": "8435889669",
        "dealAvailable": false,
        "featured": false,
        "hours": "Mon-Sun: 6:30am-3pm",
        "tags": [
            "restaurant",
            "breakfast",
            "folly beach"
        ]
    },
    {
        "id": "r32",
        "name": "Taco Boy Folly Beach",
        "subtitle": "Festive Mexican cantina with tacos & margaritas",
        "imageName": "taco_boy_folly_beach",
        "category": "Food",
        "type": "Mexican",
        "address": "106 E Ashley Ave, Folly Beach, SC 29439",
        "phone": "8435889761",
        "dealAvailable": false,
        "featured": false,
        "hours": "Mon-Sun: 11am-10pm",
        "tags": [
            "restaurant",
            "mexican",
            "folly beach"
        ]
    },
    {
        "id": "r33",
        "name": "Bowens Island Restaurant",
        "subtitle": "Rustic seafood shack with creekside views",
        "imageName": "bowens_island_restaurant",
        "category": "Food",
        "type": "Seafood",
        "address": "1870 Bowens Island Rd, Charleston, SC 29412",
        "phone": "8437952757",
        "dealAvailable": false,
        "featured": false,
        "hours": "Tue-Sat: 5pm-9:30pm",
        "tags": [
            "restaurant",
            "seafood",
            "folly beach"
        ]
    },
    {
        "id": "r34",
        "name": "Page’s Okra Grill",
        "subtitle": "Southern comfort food in Mount Pleasant",
        "imageName": "pages_okra_grill",
        "category": "Food",
        "type": "Southern",
        "address": "302 Coleman Blvd, Mount Pleasant, SC 29464",
        "phone": "8438813333",
        "dealAvailable": false,
        "featured": false,
        "hours": "Mon-Sun: 7am-9pm",
        "tags": [
            "restaurant",
            "southern",
            "mount pleasant"
        ]
    },
    {
        "id": "r36",
        "name": "Saltwater Cowboys",
        "subtitle": "BBQ & seafood with Shem Creek views",
        "imageName": "saltwater_cowboys",
        "category": "Food",
        "type": "Barbecue/Seafood",
        "address": "130 Mill St, Mt Pleasant, SC 29464",
        "phone": "8438560700",
        "dealAvailable": false,
        "featured": false,
        "hours": "Mon-Sun: 11am-10pm",
        "tags": [
            "restaurant",
            "barbecue",
            "seafood",
            "mount pleasant"
        ]
    },
    {
        "id": "r37",
        "name": "Shem Creek Bar & Grill",
        "subtitle": "Seafood & cocktails on the creek",
        "imageName": "shem_creek_bar_and_grill",
        "category": "Food",
        "type": "Seafood",
        "address": "508 Mill St, Mt Pleasant, SC 29464",
        "phone": "8438848102",
        "dealAvailable": false,
        "featured": false,
        "hours": "Mon-Sun: 11am-10pm",
        "tags": [
            "restaurant",
            "seafood",
            "mount pleasant"
        ]
    },
    {
        "id": "r38",
        "name": "The Shelter Kitchen + Bar",
        "subtitle": "Casual American eats & drinks",
        "imageName": "the_shelter_kitchen_bar",
        "category": "Food",
        "type": "American",
        "address": "202 Coleman Blvd, Mt Pleasant, SC 29464",
        "phone": "8433883625",
        "dealAvailable": false,
        "featured": false,
        "hours": "Mon-Sun: 11am-10pm",
        "tags": [
            "restaurant",
            "american",
            "mount pleasant"
        ]
    },
    {
        "id": "r39",
        "name": "Vickery’s Bar & Grill",
        "subtitle": "Southern eats & drinks on Shem Creek",
        "imageName": "vickerys_bar_and_grill",
        "category": "Food",
        "type": "Southern",
        "address": "1313 Shrimp Boat Ln, Mt Pleasant, SC 29464",
        "phone": "8438844440",
        "dealAvailable": false,
        "featured": false,
        "hours": "Mon-Sun: 11am-10pm",
        "tags": [
            "restaurant",
            "southern",
            "mount pleasant"
        ]
    },
    {
        "id": "r40",
        "name": "Grace & Grit",
        "subtitle": "Lowcountry-inspired cuisine & grits bar",
        "imageName": "grace_and_grit",
        "category": "Food",
        "type": "Southern",
        "address": "320 Wingo Way Suite 100, Mt Pleasant, SC 29464",
        "phone": "8436984748",
        "dealAvailable": false,
        "featured": false,
        "hours": "Mon-Sun: 8am-9pm",
        "tags": [
            "restaurant",
            "southern",
            "mount pleasant"
        ]
    },
    {
        "id": "r41",
        "name": "Langdon’s Restaurant & Wine Bar",
        "subtitle": "Upscale American cuisine & wine",
        "imageName": "langdons_restaurant_and_wine_bar",
        "category": "Food",
        "type": "American",
        "address": "778 S Shelmore Blvd, Mt Pleasant, SC 29464",
        "phone": "8433889200",
        "dealAvailable": false,
        "featured": false,
        "hours": "Mon-Sat: 5pm-10pm",
        "tags": [
            "restaurant",
            "american",
            "mount pleasant"
        ]
    },
    {
        "id": "r43",
        "name": "Opal Restaurant & Bar",
        "subtitle": "Mediterranean-inspired cuisine & wine",
        "imageName": "opal_restaurant_and_bar",
        "category": "Food",
        "type": "Mediterranean",
        "address": "1960 Riviera Dr, Mt Pleasant, SC 29464",
        "phone": "8436549070",
        "dealAvailable": false,
        "featured": false,
        "hours": "Mon-Sat: 5pm-10pm",
        "tags": [
            "restaurant",
            "mediterranean",
            "mount pleasant"
        ]
    },
    {
        "id": "r44",
        "name": "Burtons Grill & Bar",
        "subtitle": "American grill with gluten-free options",
        "imageName": "burtons_grill_and_bar",
        "category": "Food",
        "type": "American",
        "address": "1875 N Hwy 17, Mt Pleasant, SC 29464",
        "phone": "8436062590",
        "dealAvailable": false,
        "featured": false,
        "hours": "Mon-Sun: 11am-10pm",
        "tags": [
            "restaurant",
            "american",
            "mount pleasant"
        ]
    },
    {
        "id": "r45",
        "name": "Coleman Public House",
        "subtitle": "Gastropub with craft beer & burgers",
        "imageName": "coleman_public_house",
        "category": "Food",
        "type": "Gastropub",
        "address": "427 W Coleman Blvd, Mt Pleasant, SC 29464",
        "phone": "8434168823",
        "dealAvailable": false,
        "featured": false,
        "hours": "Mon-Sun: 11am-10pm",
        "tags": [
            "restaurant",
            "gastropub",
            "mount pleasant"
        ]
    },
    {
        "id": "r46",
        "name": "Tavern & Table",
        "subtitle": "American fare & cocktails on Shem Creek",
        "imageName": "tavern_and_table",
        "category": "Food",
        "type": "American",
        "address": "100 Church St, Mt Pleasant, SC 29464",
        "phone": "8433529510",
        "dealAvailable": false,
        "featured": false,
        "hours": "Mon-Sun: 11am-10pm",
        "tags": [
            "restaurant",
            "american",
            "mount pleasant"
        ]
    },
    {
        "id": "r47",
        "name": "The Wreck of the Richard & Charlene",
        "subtitle": "Seafood shack on Shem Creek",
        "imageName": "the_wreck_of_the_richard_and_charlene",
        "category": "Food",
        "type": "Seafood",
        "address": "106 Haddrell St, Mt Pleasant, SC 29464",
        "phone": "8438840052",
        "dealAvailable": false,
        "featured": false,
        "hours": "Mon-Sun: 5pm-10pm",
        "tags": [
            "restaurant",
            "seafood",
            "mount pleasant"
        ]
    },
    {
        "id": "r48",
        "name": "The Obstinate Daughter",
        "subtitle": "Inventive Southern & Italian fare on Sullivan’s Island",
        "imageName": "the_obstinate_daughter",
        "category": "Food",
        "type": "Southern/Italian",
        "address": "2063 Middle St, Sullivan's Island, SC 29482",
        "phone": "8434165020",
        "dealAvailable": false,
        "featured": true,
        "hours": "Mon-Sun: 11am-10pm",
        "tags": [
            "restaurant",
            "southern",
            "italian",
            "sullivans island"
        ]
    },
    {
        "id": "r49",
        "name": "Home Team BBQ Sullivan’s Island",
        "subtitle": "BBQ, wings & Southern sides on Sullivan’s Island",
        "imageName": "home_team_bbq_sullivans_island",
        "category": "Food",
        "type": "Barbecue",
        "address": "2209 Middle St, Sullivan's Island, SC 29482",
        "phone": "8438833131",
        "dealAvailable": false,
        "featured": false,
        "hours": "Mon-Sun: 11am-10pm",
        "tags": [
            "restaurant",
            "barbecue",
            "sullivans island"
        ]
    },
    {
        "id": "r50",
        "name": "High Thyme Cuisine",
        "subtitle": "New American fare & cocktails on Sullivan’s Island",
        "imageName": "high_thyme_cuisine",
        "category": "Food",
        "type": "American",
        "address": "2213 Middle St, Sullivan's Island, SC 29482",
        "phone": "8438833536",
        "dealAvailable": false,
        "featured": false,
        "hours": "Tue-Sat: 5:30pm-10pm",
        "tags": [
            "restaurant",
            "american",
            "sullivans island"
        ]
    },
    {
        "id": "b01",
        "name": "The Cocktail Club",
        "subtitle": "Craft cocktails in a stylish rooftop setting",
        "imageName": "the_cocktail_club",
        "category": "Food",
        "type": "Bar",
        "address": "98 Church St, Mt Pleasant, SC 29464",
        "phone": "8437249411",
        "dealAvailable": false,
        "featured": true,
        "hours": "Mon-Sun: 5pm-2am",
        "tags": [
            "bar",
            "cocktails",
            "downtown"
        ]
    },
    {
        "id": "b02",
        "name": "The Rooftop at The Vendue",
        "subtitle": "Rooftop bar with city and water views",
        "imageName": "the_rooftop_at_the_vendue",
        "category": "Food",
        "type": "Bar",
        "address": "19 Vendue Range, Charleston, SC 29401",
        "phone": "8435777970",
        "dealAvailable": false,
        "featured": false,
        "hours": "Mon-Sun: 11:30am-11pm",
        "tags": [
            "bar",
            "rooftop",
            "downtown"
        ]
    },
    {
        "id": "b03",
        "name": "Prohibition",
        "subtitle": "Speakeasy-style bar with live music",
        "imageName": "prohibition",
        "category": "Food",
        "type": "Bar",
        "address": "547 King St, Charleston, SC 29403",
        "phone": "8437932964",
        "dealAvailable": false,
        "featured": false,
        "hours": "Mon-Sun: 11am-2am",
        "tags": [
            "bar",
            "speakeasy",
            "downtown"
        ]
    },
    {
        "id": "b04",
        "name": "The Griffon",
        "subtitle": "Classic British-style pub with local beers",
        "imageName": "the_griffon",
        "category": "Food",
        "type": "Bar",
        "address": "18 Vendue Range, Charleston, SC 29401",
        "phone": "8437231700",
        "dealAvailable": false,
        "featured": false,
        "hours": "Mon-Sun: 11am-2am",
        "tags": [
            "bar",
            "pub",
            "downtown"
        ]
    },
    {
        "id": "b05",
        "name": "The Bar at Husk",
        "subtitle": "Craft cocktails in a historic carriage house",
        "imageName": "the_bar_at_husk",
        "category": "Food",
        "type": "Bar",
        "address": "74 Queen St, Charleston, SC 29401",
        "phone": "8435772500",
        "dealAvailable": false,
        "featured": false,
        "hours": "Mon-Sun: 4pm-12am",
        "tags": [
            "bar",
            "cocktails",
            "downtown"
        ]
    },
    {
        "id": "b06",
        "name": "The Royal American",
        "subtitle": "Live music, creative drinks, and bar food",
        "imageName": "the_royal_american",
        "category": "Food",
        "type": "Bar",
        "address": "970 Morrison Dr, Charleston, SC 29403",
        "phone": "8438176925",
        "dealAvailable": false,
        "featured": false,
        "hours": "Mon-Sun: 4pm-2am",
        "tags": [
            "bar",
            "music",
            "downtown"
        ]
    },
    {
        "id": "b07",
        "name": "The Gin Joint",
        "subtitle": "Craft cocktails & small plates in a cozy spot",
        "imageName": "the_gin_joint",
        "category": "Food",
        "type": "Bar",
        "address": "182 E Bay St, Charleston, SC 29401",
        "phone": "8435776111",
        "dealAvailable": false,
        "featured": false,
        "hours": "Mon-Sun: 4pm-12am",
        "tags": [
            "bar",
            "cocktails",
            "downtown"
        ]
    },
    {
        "id": "b08",
        "name": "The Commodore",
        "subtitle": "Retro bar with live music & dancing",
        "imageName": "the_commodore",
        "category": "Food",
        "type": "Bar",
        "address": "504 Meeting St, Charleston, SC 29403",
        "phone": "8437933482",
        "dealAvailable": false,
        "featured": false,
        "hours": "Wed-Sat: 8pm-2am",
        "tags": [
            "bar",
            "music",
            "downtown"
        ]
    },
    {
        "id": "b09",
        "name": "Uptown Social",
        "subtitle": "Lively bar with rooftop, pizza, and games",
        "imageName": "uptown_social",
        "category": "Food",
        "type": "Bar",
        "address": "587 King St, Charleston, SC 29403",
        "phone": "8437931837",
        "dealAvailable": false,
        "featured": false,
        "hours": "Mon-Sun: 4pm-2am",
        "tags": [
            "bar",
            "rooftop",
            "downtown"
        ]
    },
    {
        "id": "b10",
        "name": "Republic Garden & Lounge",
        "subtitle": "Trendy nightclub with DJs and dancing",
        "imageName": "republic_garden_and_lounge",
        "category": "Food",
        "type": "Bar",
        "address": "462 King St, Charleston, SC 29403",
        "phone": "8437277438",
        "dealAvailable": false,
        "featured": false,
        "hours": "Mon-Sun: 4pm-2am",
        "tags": [
            "bar",
            "nightclub",
            "downtown"
        ]
    },
    {
        "id": "b11",
        "name": "Bay Street Biergarten",
        "subtitle": "Beer hall with German eats & outdoor space",
        "imageName": "bay_street_biergarten",
        "category": "Food",
        "type": "Bar",
        "address": "549 E Bay St, Charleston, SC 29403",
        "phone": "8432662437",
        "dealAvailable": false,
        "featured": false,
        "hours": "Mon-Sun: 11am-2am",
        "tags": [
            "bar",
            "biergarten",
            "downtown"
        ]
    },
    {
        "id": "b12",
        "name": "Henry’s On The Market",
        "subtitle": "Historic bar with rooftop & live music",
        "imageName": "henrys_on_the_market",
        "category": "Food",
        "type": "Bar",
        "address": "54 N Market St, Charleston, SC 29401",
        "phone": "8437234363",
        "dealAvailable": false,
        "featured": false,
        "hours": "Mon-Sun: 11am-2am",
        "tags": [
            "bar",
            "rooftop",
            "downtown"
        ]
    },
    {
        "id": "b13",
        "name": "Burns Alley Tavern",
        "subtitle": "Hidden dive bar with cheap drinks",
        "imageName": "burns_alley_tavern",
        "category": "Food",
        "type": "Bar",
        "address": "354B King St, Charleston, SC 29401",
        "phone": "8437236735",
        "dealAvailable": false,
        "featured": false,
        "hours": "Mon-Sun: 4pm-2am",
        "tags": [
            "bar",
            "dive",
            "downtown"
        ]
    },
    {
        "id": "b14",
        "name": "Blind Tiger Pub",
        "subtitle": "Historic pub with courtyard & live music",
        "imageName": "blind_tiger_pub",
        "category": "Food",
        "type": "Bar",
        "address": "36-38 Broad St, Charleston, SC 29401",
        "phone": "8438726700",
        "dealAvailable": false,
        "featured": false,
        "hours": "Mon-Sun: 11am-2am",
        "tags": [
            "bar",
            "pub",
            "downtown"
        ]
    },
    {
        "id": "b15",
        "name": "Trio Club",
        "subtitle": "Nightclub with DJs & dance floor",
        "imageName": "trio_club",
        "category": "Food",
        "type": "Bar",
        "address": "139 Calhoun St, Charleston, SC 29401",
        "phone": "8435778746",
        "dealAvailable": false,
        "featured": false,
        "hours": "Thu-Sun: 9pm-2am",
        "tags": [
            "bar",
            "nightclub",
            "downtown"
        ]
    },
    {
        "id": "b16",
        "name": "The Brick",
        "subtitle": "Sports bar with pub food & games",
        "imageName": "the_brick",
        "category": "Food",
        "type": "Bar",
        "address": "24 Ann St Suite A, Charleston, SC 29403",
        "phone": "8439986828",
        "dealAvailable": false,
        "featured": false,
        "hours": "Mon-Sun: 11am-2am",
        "tags": [
            "bar",
            "sports",
            "downtown"
        ]
    },
    {
        "id": "b17",
        "name": "The Alley",
        "subtitle": "Bowling, arcade games, and full bar",
        "imageName": "the_alley",
        "category": "Food",
        "type": "Bar",
        "address": "131 Columbus St, Charleston, SC 29403",
        "phone": "8438184080",
        "dealAvailable": false,
        "featured": false,
        "hours": "Mon-Sun: 11am-2am",
        "tags": [
            "bar",
            "bowling",
            "downtown"
        ]
    },
    {
        "id": "b18",
        "name": "Red’s Ice House",
        "subtitle": "Waterfront bar with seafood & live music",
        "imageName": "reds_ice_house",
        "category": "Food",
        "type": "Bar",
        "address": "98 Church St, Mt Pleasant, SC 29464",
        "phone": "8433880003",
        "dealAvailable": false,
        "featured": false,
        "hours": "Mon-Sun: 11am-2am",
        "tags": [
            "bar",
            "waterfront",
            "mount pleasant"
        ]
    },
    {
        "id": "b19",
        "name": "Saltwater Cowboys Bar",
        "subtitle": "BBQ, seafood, and drinks on Shem Creek",
        "imageName": "saltwater_cowboys",
        "category": "Food",
        "type": "Bar",
        "latitude": 32.7895,
        "longitude": -79.8816,
        "phone": "8438560700",
        "dealAvailable": false,
        "featured": false,
        "hours": "Mon-Sun: 11am-10pm",
        "tags": [
            "bar",
            "waterfront",
            "mount pleasant"
        ]
    },
    {
        "id": "b20",
        "name": "Mainland Container Co. Bar & Grill",
        "subtitle": "Casual bar with outdoor seating & live music",
        "imageName": "mainland_container_co",
        "category": "Food",
        "type": "Bar",
        "address": "1528 Ben Sawyer Blvd, Mt Pleasant, SC 29464",
        "phone": "8433529565",
        "dealAvailable": false,
        "featured": false,
        "hours": "Mon-Sun: 11am-10pm",
        "tags": [
            "bar",
            "casual",
            "mount pleasant"
        ]
    },
    {
        "id": "b21",
        "name": "The Windjammer",
        "subtitle": "Beachfront bar with live music on Isle of Palms",
        "imageName": "the_windjammer",
        "category": "Food",
        "type": "Bar",
        "address": "1008 Ocean Blvd, Isle of Palms, SC 29451",
        "phone": "8438868596",
        "dealAvailable": false,
        "featured": false,
        "hours": "Mon-Sun: 11am-2am",
        "tags": [
            "bar",
            "beachfront",
            "isle of palms"
        ]
    },
    {
        "id": "b22",
        "name": "Loggerhead’s Beach Grill",
        "subtitle": "Beach bar with burgers & seafood on Folly Beach",
        "imageName": "loggerheads_beach_grill",
        "category": "Food",
        "type": "Bar",
        "address": "123 W Ashley Ave, Folly Beach, SC 29439",
        "phone": "8435882365",
        "dealAvailable": false,
        "featured": false,
        "hours": "Mon-Sun: 11am-10pm",
        "tags": [
            "bar",
            "beach",
            "folly beach"
        ]
    },
    {
        "id": "b23",
        "name": "Snapper Jacks",
        "subtitle": "Rooftop bar with ocean views on Folly Beach",
        "imageName": "snapper_jacks",
        "category": "Food",
        "type": "Bar",
        "address": "101 E Arctic Ave, Folly Beach, SC 29439",
        "phone": "8435884200",
        "dealAvailable": false,
        "featured": false,
        "hours": "Mon-Sun: 11am-2am",
        "tags": [
            "bar",
            "rooftop",
            "folly beach"
        ]
    },
    {
        "id": "b24",
        "name": "St. James Gate Irish Pub",
        "subtitle": "Irish pub with beers, whiskey & live music",
        "imageName": "st_james_gate_irish_pub",
        "category": "Food",
        "type": "Bar",
        "address": "11 Center St, Folly Beach, SC 29439",
        "phone": "8435880009",
        "dealAvailable": false,
        "featured": false,
        "hours": "Mon-Sun: 11am-2am",
        "tags": [
            "bar",
            "irish",
            "folly beach"
        ]
    },
    {
        "id": "b25",
        "name": "Dunleavy’s Pub",
        "subtitle": "Irish pub with local vibe on Sullivan’s Island",
        "imageName": "dunleavys_pub",
        "category": "Food",
        "type": "Bar",
        "address": "2213 Middle St, Sullivan's Island, SC 29482",
        "phone": "8438839646",
        "dealAvailable": false,
        "featured": false,
        "hours": "Mon-Sun: 11am-2am",
        "tags": [
            "bar",
            "irish",
            "sullivans island"
        ]
    },
    {
        "id": "b26",
        "name": "Home Team BBQ Bar Sullivan’s Island",
        "subtitle": "BBQ, wings & drinks on Sullivan’s Island",
        "imageName": "home_team_bbq",
        "category": "Food",
        "type": "Bar",
        "address": "2209 Middle St, Sullivan's Island, SC 29482",
        "phone": "8438833131",
        "dealAvailable": false,
        "featured": false,
        "hours": "Mon-Sun: 11am-10pm",
        "tags": [
            "bar",
            "bbq",
            "sullivans island"
        ]
    },
    {
        "id": "b27",
        "name": "The Longboard Bar",
        "subtitle": "Island-inspired drinks & seafood on Sullivan’s Island",
        "imageName": "the_longboard",
        "category": "Food",
        "type": "Bar",
        "address": "2213-B Middle St, Sullivan's Island, SC 29482",
        "phone": "8438686399",
        "dealAvailable": false,
        "featured": false,
        "hours": "Mon-Sun: 11am-10pm",
        "tags": [
            "bar",
            "seafood",
            "sullivans island"
        ]
    },
    {
        "id": "b28",
        "name": "Saltwater Cowboys Upstairs Bar",
        "subtitle": "Rooftop bar on Shem Creek",
        "imageName": "saltwater_cowboys",
        "category": "Food",
        "type": "Bar",
        "latitude": 32.7895,
        "longitude": -79.8816,
        "phone": "8438560700",
        "dealAvailable": false,
        "featured": false,
        "hours": "Mon-Sun: 11am-10pm",
        "tags": [
            "bar",
            "rooftop",
            "mount pleasant"
        ]
    },
    {
        "id": "b29",
        "name": "Vickery’s Bar Upstairs",
        "subtitle": "Upstairs bar with Shem Creek views",
        "imageName": "vickerys_bar_and_grill",
        "category": "Food",
        "type": "Bar",
        "address": "1313 Shrimp Boat Ln, Mt Pleasant, SC 29464",
        "phone": "8438844440",
        "dealAvailable": false,
        "featured": false,
        "hours": "Mon-Sun: 11am-10pm",
        "tags": [
            "bar",
            "waterfront",
            "mount pleasant"
        ]
    },
    {
        "id": "b30",
        "name": "Pier 101 Restaurant & Bar",
        "subtitle": "Oceanfront bar on Folly Beach Pier",
        "imageName": "pier_101",
        "category": "Food",
        "type": "Bar",
        "address": "101 E Arctic Ave, Folly Beach, SC 29439",
        "phone": "8436330246",
        "dealAvailable": false,
        "featured": false,
        "hours": "Mon-Sun: 11am-10pm",
        "tags": [
            "bar",
            "oceanfront",
            "folly beach"
        ]
    },
    
    {
      "id": "beach01",
      "name": "Folly Beach",
      "subtitle": "Surf town with laid-back vibes, shops, and a scenic pier",
      "imageName": "folly_beach",
      "category": "Beaches",
      "type": "Beach",
      "address": "101 E Arctic Ave, Folly Beach, SC 29439",
      "phone": "8435882447",
      "dealAvailable": false,
      "featured": true,
      "hours": "Open Daily: 6am-10pm",
      "tags": ["beach", "folly beach", "surfing", "pier", "coastal", "sunset"]
    }
,

{
  "id": "beach02",
  "name": "Sullivan’s Island",
  "subtitle": "Quiet beach town with historic landmarks and pristine shore",
  "imageName": "sullivans_island",
  "category": "Beaches",
  "type": "Beach",
  "address": "Station 18 St, Sullivan's Island, SC 29482",
  "phone": "8438833198",
  "dealAvailable": false,
  "featured": false,
  "hours": "Open Daily: 6am-9pm",
  "tags": ["beach", "sullivans island", "lighthouse", "historic", "quiet", "local"]
}
,

{
  "id": "beach03",
  "name": "Isle of Palms",
  "subtitle": "Family-friendly beach with resort amenities and long stretches of sand",
  "imageName": "isle_of_palms",
  "category": "Beaches",
  "type": "Beach",
  "address": "14th Ave & Ocean Blvd, Isle of Palms, SC 29451",
  "phone": "8438866428",
  "dealAvailable": false,
  "featured": false,
  "hours": "Open Daily: 6am-9pm",
  "tags": ["beach", "isle of palms", "family", "resorts", "sunbathing", "coastal"]
}

    
    
   ]
